[
  { "areaName": "강남역", "areaCode": "POI014", "lat": 37.49795, "lon": 127.02762 },
  { "areaName": "강남 MICE 관광특구", "areaCode": "POI001", "lat": 37.51260, "lon": 127.05900 },
  { "areaName": "광화문·덕수궁", "areaCode": "POI009", "lat": 37.57100, "lon": 126.97690 },
  { "areaName": "홍대 관광특구", "areaCode": "POI007", "lat": 37.55630, "lon": 126.92360 },
  { "areaName": "여의도", "areaCode": "POI072", "lat": 37.52190, "lon": 126.92450 },
  { "areaName": "잠실 관광특구", "areaCode": "POI005", "lat": 37.51330, "lon": 127.10000 },
  { "areaName": "명동 관광특구", "areaCode": "POI003", "lat": 37.56360, "lon": 126.98690 },
  { "areaName": "서울역", "areaCode": "POI033", "lat": 37.55470, "lon": 126.97070 },
  { "areaName": "이태원 관광특구", "areaCode": "POI004", "lat": 37.53450, "lon": 126.99460 }
]
